{
    "location":
      [
        {
            "id":1,
            "title":"Chùa Bà Thiên Hậu",
            "address":"4 Nguyễn Du, Phú Cường, Thủ Dầu Một, Bình Dương",
            "phone":"+84 274 3823 073",
            "web":"",
            "latitude":"10.981071",
            "longitude":"106.654693",
            "category": "Chùa"

        },
        {
            "id":2,
            "title":"Chùa Hội Khánh",
            "address":"205 Yersin, Phú Cường, Thủ Dầu Một, Bình Dương",
            "phone":"",
            "web":"",
            "latitude":"10.982359",
            "longitude":"106.659156",
            "category": "Chùa"
        },
        {
            "id":3,
            "title":"Nhà thờ Chánh Tòa Phú Cường",
            "address":"394 Cách Mạng Tháng Tám, Phú Cường, Thủ Dầu Một, Bình Dương",
            "phone":"+84 274 3822 292",
            "web":"https://giaophanphucuong.org/",
            "latitude":"10.982057",
            "longitude":"106.653944",
            "category": "Nhà thờ"
        },
        {
            "id":4,
            "title":"Chợ Thủ Dầu Một - Chợ Gà",
            "address":"50 Nguyễn Thái Học, Phú Cường, Thủ Dầu Một, Bình Dương",
            "phone":"+84 394 401 690",
            "web":"https://binhduong.gov.vn",
            "latitude":"10.978650",
            "longitude":"106.652401",
            "category": "Siêu thị - Chợ"
        },
        {
            "id":5,
            "title":"Công viên Phú Cường",
            "address":"530 Cách Mạng Tháng Tám, Phú Cường, Thủ Dầu Một, Bình Dương",
            "phone":"+84 91 969 88 97",
            "web":"",
            "latitude":"10.978257",
            "longitude":"106.656415",
            "category": "Vui chơi giải trí"
        },
        {
            "id":6,
            "title":"Xiên nướng BBQ & Lẩu",
            "address":"229 Yersin, Phú Cường, Thủ Dầu Một, Bình Dương",
            "phone":"+84 93 154 41 99",
            "web":"",
            "latitude":"10.982022",
            "longitude":"106.654844",
            "category": "Ẩm thực"
        }
      ]
  }
